[
	{ 
		"_id":1,
		"name" : "Pappalandia", 
		"address" : { 
			"street" : "Viale Trieste", 
			"civic": "66", 
			"city":"Cagliari", 
			"prov":"CA", 
			"cap":"09123", 
			"phone":"070 123456"
		},
    "loc": { "type":"Point", "coordinates": [ 9.1055878, 39.2188781 ] },
    "pros": {
      "Cucina Ottima": [ "user1" ],
      "Bel Posto": [ "user2" ],
      "Servizio Veloce": [ "user1" ]
    },
    "cons": {
       "Servizio Poco Professionale": [ "user2" ] 
    }
	},
	{ 
		"_id":2,
		"name" : "Rosso Peperone", 
		"address" : { 
			"street" : "Via Sassari", 
			"civic": "11-13", 
			"city":"Cagliari", 
			"prov":"CA", 
			"cap":"09124", 
			"phone":"070 654321"
		},
    "loc": { "type":"Point", "coordinates": [ 9.109625, 39.215946 ] },
    "pros": {
      "Cucina Ottima": [ "user1", "user2", "user3", "user4", "user5" ],
      "Bel Posto": [ "user3" ],
      "Servizio Veloce": [ "user5" ]
    },
    "cons": {
       "Servizio Lento": [ "user1" ] 
    }
	},
	{ 
		"_id":3,
		"name" : "El Macho", 
		"address" : { 
			"street" : "Via Giorgio Asproni", 
			"civic": "9", 
			"city":"Cagliari", 
			"prov":"CA", 
			"cap":"09123", 
			"phone":"070 321654"
		},
    "loc": { "type":"Point", "coordinates": [ 9.106347, 39.219382 ] },
    "pros": {
      "Cucina Ottima": [ "user4" ],
      "Bel Posto": [ "user2" ],
      "Servizio Veloce": [ "user3", "user4", "user5" ]
    },
    "cons": {
      "Posto Sporco": [ "user1" ],
      "Servizio Poco Professionale": [ "user1", "user2" ] 
    }
	},
	{ 
		"_id":4,
		"name" : "Old Old East", 
		"address" : { 
			"street" : "Piazza L'Unione Sarda", 
			"city":"Cagliari", 
			"prov":"CA", 
			"cap":"09122", 
			"phone":"070 654123"
		},
    "loc": { "type":"Point", "coordinates": [ 9.0982899, 39.2267915 ] },
    "pros": {
      "Cucina Ottima": [ "user1" ],
      "Servizio Veloce": [ "user2", "user4" ]
    },
    "cons": {
      "Posto Sporco": [ "user1" ],
      "Piatti Sempre Freddi": [ "user1", "user3", "user5" ],
      "Servizio Lento": [ "user2" ] 
    }
	}	
]